[
    {"lat": 44.837789, "lng": -0.57918, "organisme":"Formateurs de Bordeaux", "region":"Nouvelle-Aquitaine", "departement":"Gironde", "dates":[{"debut":"13/11/2019","fin":"15/11/2019", "ouverte": true}, {"debut":"29/01/2020","fin":"31/01/2020", "ouverte": true}], "lieu": "Bordeaux", "tel": "01.00.00.00.00", "adresse": "4 rue Rambervilliers", "title":"Formation de Bordeaux"},
    {"lat": 47.216667, "lng": -1.550000, "organisme":"Formateurs de Nantes", "region":"Pays de la Loire", "departement":"Loire-Atlantique", "dates":[{"debut":"05/11/2019","fin":"07/11/2019", "ouverte": true}, {"debut":"15/01/2020","fin":"17/01/2020", "ouverte": true}], "lieu": "Nantes", "tel": "01.00.00.00.00", "adresse": "4 rue Rambervilliers", "title":"Formation de Nantes"},
    {"lat": 48.8534, "lng": 2.3488, "organisme":"Formateurs de Paris", "region":"Île-de-France", "departement":"Paris", "dates":[{"debut":"16/10/2019","fin":"18/10/2019", "ouverte": true}, {"debut":"20/11/2019","fin":"22/11/2019", "ouverte": true}, {"debut":"03/12/2019","fin":"05/12/2019", "ouverte": true}, {"debut":"22/01/2020","fin":"24/01/2020", "ouverte": true}], "lieu": "Paris", "tel": "01.00.00.00.00", "adresse": "4 rue Rambervilliers", "title":"Formation de Paris"},
    {"lat": 45.7500, "lng": 4.8500, "organisme":"Formateurs de Lyon", "region":"Auvergne-Rhône-Alpes", "departement":"Rhône", "dates":[{"debut":"19/11/2019","fin":"21/11/2019", "ouverte": true}, {"debut":"28/01/2020","fin":"30/01/2020", "ouverte": true}], "lieu": "Lyon", "tel": "01.00.00.00.00", "adresse": "4 rue Rambervilliers", "title":"Formation de Lyon"},
    {"lat": 43.600, "lng": 1.433333, "organisme":"Formateurs de Toulouse", "region":"Occitanie", "departement":"Haute-Garonne", "dates":[{"debut":"29/10/2019","fin":"31/10/2019", "ouverte": true}, {"debut":"10/12/2019","fin":"12/12/2019", "ouverte": true}], "lieu": "Toulouse", "tel": "01.00.00.00.00", "adresse": "4 rue Rambervilliers", "title":"Formation de Toulouse"}
]